Serial Number,TimeUS,VibeX,VibeY,VibeZ
0,361814765,0.02124672,0.02045621,0.02250056
1,361914206,0.02246884,0.02316009,0.02042601
2,362014197,0.02136528,0.02400862,0.02503496
3,362114198,0.02219149,0.02210676,0.02470059
4,362214229,0.02310366,0.02328513,0.02411016
5,362314193,0.02257188,0.0211429,0.02282191
6,362414121,0.02423388,0.02121989,0.02378183
7,362514227,0.02288801,0.02274904,0.02478983
8,362614188,0.02283707,0.0212399,0.02442995
9,362714168,0.02282595,0.02255856,0.02520256
10,362814187,0.02435977,0.02119979,0.02551254
11,362914244,0.02198573,0.02098446,0.02339122
12,363014157,0.02164289,0.02047934,0.02556394
13,363114197,0.02160653,0.02246277,0.02478936
14,363214117,0.02482125,0.02329578,0.02587579
15,363314221,0.02328851,0.02104087,0.02427351
16,363414125,0.02507711,0.02263073,0.02511785
17,363514220,0.02474342,0.02301891,0.02319905
18,363614239,0.02424419,0.02429392,0.02360155
19,363714152,0.02394972,0.02311644,0.02326723
20,363814147,0.02252924,0.02090855,0.02410194
21,363914167,0.02277454,0.02200106,0.02507222
22,364014202,0.02294837,0.02120326,0.02370787
23,364114219,0.02269324,0.02306142,0.02557508
24,364214139,0.02242834,0.02338107,0.02430821
25,364314192,0.02268558,0.02169134,0.02257561
26,364414165,0.0221035,0.02135785,0.02490994
27,364514212,0.02313063,0.02292909,0.02656054
28,364614223,0.02338785,0.02058902,0.02513099
29,364714255,0.02198988,0.01920226,0.02312567
30,364814200,0.02188307,0.02181295,0.02354
31,364914260,0.0284496,0.03554982,0.0266741
32,365014207,0.03957272,0.04495188,0.04626817
33,365114171,0.05135533,0.0879085,0.08886736
34,365214221,0.05879819,0.09051521,0.08490334
35,365314214,0.06203458,0.07548147,0.07816762
36,365414230,0.07402711,0.1026036,0.1228024
37,365514226,0.08782312,0.1128436,0.1392595
38,365614214,0.06916538,0.1108074,0.1023718
39,365714188,0.06624011,0.1122351,0.08370867
40,365814244,0.07116678,0.1193487,0.06779297
41,365914227,0.09729277,0.1029452,0.1124318
42,366014171,0.07787383,0.0956253,0.1000108
43,366114223,0.09381343,0.09653889,0.1224528
44,366214140,0.09994019,0.1036668,0.1185837
45,366314247,0.08582146,0.1160077,0.1340833
46,366414219,0.08979232,0.1265184,0.1828785
47,366514191,0.09038234,0.1652584,0.1878538
48,366614220,0.1252275,0.2058858,0.2215273
49,366714216,0.1459581,0.1867636,0.2243398
50,366814224,0.1513696,0.1773615,0.2284366
51,366914182,0.1406266,0.2012471,0.2733773
52,367014239,0.1882696,0.2074688,0.2373044
53,367114203,0.2297362,0.2111403,0.2618909
54,367214176,0.2024725,0.2377775,0.3326896
55,367314205,0.1883733,0.3029571,0.3292462
56,367414205,0.1769802,0.2992381,0.2671924
57,367514243,0.2734104,0.3263688,0.2885758
58,367614228,0.2676255,0.2920887,0.3751955
59,367714175,0.3730341,0.3027443,0.4210489
60,367814161,0.3111411,0.3234319,0.4557407
61,367914167,0.2536681,0.3031473,0.4299048
62,368014186,0.3742271,0.4082346,0.5017896
63,368114161,0.3628051,0.3228245,0.4778882
64,368214186,0.3879834,0.2736629,0.4660488
65,368314221,0.3823148,0.3730701,0.4034952
66,368414196,0.3492148,0.372097,0.4098192
67,368514216,0.3425249,0.3170107,0.353433
68,368614239,0.2846251,0.2659962,0.3443394
69,368714236,0.2598866,0.3614576,0.383079
70,368814223,0.3300591,0.3291583,0.3768706
71,368914225,0.5021276,0.3822174,0.4499604
72,369014289,0.3813175,0.412681,0.4303664
73,369114183,0.2934323,0.3380158,0.4384105
74,369214178,0.3055808,0.2635217,0.4397352
75,369314201,0.3159229,0.2631555,0.4650312
76,369414183,0.3321865,0.3386228,0.4361836
77,369514292,0.2791672,0.3236725,0.5117557
78,369614250,0.3140248,0.2911076,0.4272979
79,369714284,1.03662,0.5992343,0.7363786
80,369814309,3.122496,2.905008,2.565056
81,369914249,5.776347,5.034863,5.010161
82,370014241,8.056467,9.045504,15.01608
83,370114187,16.4344,8.669689,13.71678
84,370214213,15.92693,7.849136,12.60232
85,370314275,15.45371,8.651246,11.28475
86,370414187,16.43709,7.599778,12.7893
87,370514303,11.16614,6.793043,16.42364
88,370614226,8.262259,6.180117,19.61203
89,370714220,11.81802,6.067082,16.91468
90,370814278,12.93072,5.34292,14.37658
91,370914191,12.52262,6.855773,13.76884
92,371014281,10.40115,8.272094,16.65404
93,371114284,11.81086,7.501452,12.41893
94,371214235,11.49417,6.037254,10.27205
95,371314305,13.75012,8.159101,10.2868
96,371414239,11.80341,9.127637,12.41818
97,371514268,14.39937,8.175772,15.28529
98,371614272,12.31971,7.581479,19.19862
99,371714309,14.49075,7.314547,15.54025
100,371814227,14.79924,8.018305,17.26303
101,371914270,14.32423,8.892974,17.08383
102,372014266,14.19304,7.138907,13.42735
103,372114270,16.5691,6.97725,14.1761
104,372214213,16.91948,6.985441,13.28552
105,372314218,15.79122,6.555365,20.61429
106,372414220,16.21692,7.741918,18.23521
107,372514285,14.00202,7.073586,18.12848
108,372614226,14.63692,8.598632,20.60725
109,372714202,14.84769,10.19038,24.22794
110,372814236,16.44426,8.756971,23.34967
111,372914230,17.62468,7.096261,16.50913
112,373014293,18.20003,9.119818,19.0645
113,373114256,14.90205,8.812753,26.96022
114,373214221,13.16496,9.288671,20.78076
115,373314210,13.94325,10.35666,26.2484
116,373414244,15.07274,10.56003,27.32517
117,373514319,12.69947,9.704659,28.38346
118,373614225,14.5678,9.942321,24.27712
119,373714307,14.42183,9.160841,23.80895
120,373814334,14.5797,9.910809,20.3946
121,373914270,13.20813,8.95162,25.78527
122,374014268,13.45755,9.642932,24.69903
123,374114252,13.61248,8.678286,25.7636
124,374214220,14.13448,9.024795,24.71743
125,374314265,13.94478,9.693582,23.00875
126,374414225,13.91549,8.640127,24.93531
127,374514292,13.85175,8.199285,24.10808
128,374614225,15.08979,8.897537,27.33282
129,374714267,14.36825,8.158736,29.26805
130,374814268,15.90179,9.646701,21.41666
131,374914254,15.1528,8.56226,20.86369
132,375014230,14.12642,8.509034,21.36633
133,375114232,14.63716,7.947565,23.06949
134,375214259,13.53594,6.986197,21.90969
135,375314293,15.39152,8.147933,19.03887
136,375414224,13.98211,7.689821,22.34072
137,375514238,12.87883,7.555953,21.40022
138,375614228,14.54407,8.963839,14.95471
139,375714295,15.0411,9.302002,18.32493
140,375814176,14.12031,7.268826,19.53651
141,375914234,11.28513,8.212477,26.08881
142,376014268,8.766166,6.435246,20.24179
143,376114246,11.17503,7.279105,23.70948
144,376214202,13.61534,9.363302,19.23898
145,376314281,15.011,7.832557,14.11953
146,376414275,16.91769,9.600914,22.23649
147,376514228,17.67151,10.29441,22.9525
148,376614298,16.65532,11.1763,24.97277
149,376714231,16.09688,12.4263,26.22188
150,376814259,15.83768,12.224,22.27785
151,376914214,18.92627,9.105546,19.62673
152,377014254,18.08626,10.73986,19.73888
153,377114233,14.93566,12.33524,27.41097
154,377214253,15.2041,12.11495,29.22457
155,377314275,14.79652,11.85021,23.26444
156,377414184,15.33653,11.03563,19.85674
157,377514287,15.86171,9.670363,25.3018
158,377614207,15.60634,9.567662,23.24749
159,377714267,15.56856,9.478897,26.41796
160,377814263,16.0613,8.909275,28.88762
161,377914227,14.75949,7.930318,19.47337
162,378014303,13.15251,9.89759,22.24085
163,378114246,19.4286,9.421671,22.19085
164,378214268,17.60024,8.932028,20.40284
165,378314264,19.11497,8.372285,22.88726
166,378414258,17.62832,8.725799,28.13409
167,378514277,17.25449,8.370023,29.69789
168,378614280,16.90085,8.496519,31.62005
169,378714206,16.16338,8.921888,27.77175
170,378814221,14.1885,8.570951,29.88145
171,378914227,14.73912,9.119223,31.61645
172,379014264,16.12663,9.258039,25.18057
173,379114282,15.98694,7.738828,27.25791
174,379214226,14.883,11.1824,23.18374
175,379314285,17.17151,9.865134,26.46757
176,379414222,18.36677,8.245726,28.6892
177,379514231,19.49195,7.943233,23.87942
178,379614264,17.22491,8.183117,23.42067
179,379714260,15.80545,10.87778,26.06179
180,379814204,16.03587,11.7405,25.7902
181,379914277,18.115,10.32456,20.79793
182,380014310,19.16082,8.956142,20.91739
183,380114305,19.75963,10.02286,23.70972
184,380214230,21.39878,10.20367,20.92481
185,380314276,21.6335,9.391062,21.87529
186,380414202,17.00254,8.844316,23.22052
187,380514282,17.36608,10.73053,20.27102
188,380614234,16.27158,11.12108,23.26978
189,380714249,16.65464,9.756219,25.95807
190,380814265,16.33419,9.162097,22.72043
191,380914211,15.13044,7.988927,29.92476
192,381014246,16.29851,7.878726,32.02091
193,381114242,17.57484,7.921005,27.29552
194,381214191,17.27409,7.951914,28.36701
195,381314237,15.44665,8.067039,24.89428
196,381414212,14.36846,7.500083,24.64684
197,381514224,16.67146,8.012799,24.43954
198,381614248,12.60012,7.348418,17.3875
199,381714229,12.57779,10.70825,25.50071
200,381814249,19.81839,7.706073,20.88634
201,381914254,14.59052,6.602893,16.06947
202,382014322,13.76556,7.582305,18.13588
203,382114163,14.16491,10.38791,21.61734
204,382214320,19.60484,9.194991,20.98942
205,382314291,21.48355,7.176206,16.29134
206,382414286,17.58923,8.602803,21.3851
207,382514205,19.42185,8.727947,26.67531
208,382614249,16.16873,9.350837,19.35806
209,382714259,14.95704,10.34414,22.61506
210,382814201,15.221,9.927324,19.71778
211,382914291,15.09858,10.76061,21.23381
212,383014271,14.4711,11.08827,24.46231
213,383114215,14.592,11.57219,26.68553
214,383214238,17.15272,8.911895,26.12972
215,383314305,20.49122,9.462413,25.98718
216,383414208,17.32926,9.088361,23.34202
217,383514206,15.11308,8.411035,24.98799
218,383614317,13.40219,11.3765,23.27113
219,383714301,13.35317,9.91454,21.08868
220,383814265,14.67596,8.879573,24.95252
221,383914158,17.05482,8.374153,20.18472
222,384014246,15.45618,8.85778,18.81277
223,384114253,17.54732,9.18392,19.69993
224,384214292,16.39088,10.40793,19.78389
225,384314333,15.54133,10.8518,15.50198
226,384414190,15.64332,9.32099,16.03119
227,384514244,13.62252,8.866805,23.34468
228,384614217,16.47469,8.637606,19.89961
229,384714311,15.51688,8.42947,22.02521
230,384814232,14.40356,7.767081,29.4223
231,384914222,17.3905,8.528101,26.53843
232,385014240,16.84382,9.387726,25.88961
233,385114268,15.86623,8.571331,28.25721
234,385214246,18.1239,8.810678,25.26579
235,385314247,15.54924,9.505219,26.86013
236,385414221,15.61231,11.37081,23.85822
237,385514279,17.35997,10.83319,24.5787
238,385614281,16.88344,10.32414,21.42171
239,385714240,18.96518,9.805127,19.97538
240,385814235,19.99398,10.25786,18.82373
241,385914242,17.23214,9.614836,20.43151
242,386014269,16.16205,9.069887,26.64145
243,386114175,15.30883,8.466909,32.63748
244,386214246,16.47942,9.533666,24.46774
245,386314295,16.1601,9.024588,28.2822
246,386414285,14.54658,10.40638,22.78391
247,386514281,17.41302,9.922615,26.62572
248,386614215,16.99527,10.23419,33.76424
249,386714264,19.35338,8.997867,27.13354
250,386814279,15.67874,9.385274,27.58303
251,386914235,17.17565,10.26184,24.99445
252,387014278,15.59029,9.114355,31.04773
253,387114286,16.45415,10.1206,31.7594
254,387214226,14.54659,9.7542,27.48308
255,387314286,15.77257,8.543973,22.636
256,387414288,14.24526,8.403133,26.97507
257,387514224,15.77632,8.737529,30.20409
258,387614209,16.04811,8.725918,32.5345
259,387714257,14.14032,9.587601,35.48385
260,387814238,13.35075,9.631716,33.88791
261,387914211,15.87129,8.502085,34.50461
262,388014292,15.2226,9.352221,37.43919
263,388114299,15.11113,11.32907,32.47177
264,388214205,15.00623,11.20735,28.13684
265,388314342,15.11318,9.696844,30.0582
266,388414223,15.10395,9.670144,31.14125
267,388514264,15.58158,10.70352,29.37864
268,388614179,15.83912,10.7968,23.33774
269,388714214,14.88273,9.554081,19.42599
270,388814277,18.54726,9.440566,22.56009
271,388914221,18.43601,9.647636,30.82154
272,389014244,15.88244,10.20655,33.0344
273,389114283,14.68393,11.25939,34.10342
274,389214241,15.03751,11.21771,34.43872
275,389314216,16.9122,11.0803,29.40945
276,389414252,18.02737,10.69441,24.94662
277,389514279,15.97278,11.10001,29.78607
278,389614211,19.402,8.658508,26.62649
279,389714263,13.78563,10.6837,28.90051
280,389814232,19.76407,9.936415,29.79142
281,389914340,19.54936,7.599183,23.26801
282,390014256,12.36231,11.65865,33.44895
283,390114255,19.25923,10.54202,29.69906
284,390214214,17.98931,10.6557,30.28176
285,390314315,18.28068,12.4378,31.13338
286,390414205,17.46532,10.34288,33.57474
287,390514246,14.60881,11.24747,31.54935
288,390614292,17.33425,10.02367,35.47499
289,390714289,13.58869,10.88035,32.27625
290,390814281,14.38713,10.53368,24.70499
291,390914205,16.33549,9.273149,25.11056
292,391014289,14.24337,8.840701,31.96884
293,391114264,13.46521,10.14227,35.9403
294,391214273,12.78265,9.831772,39.62977
295,391314265,13.34412,8.750834,43.43225
296,391414217,13.24899,11.78561,33.93225
297,391514233,16.55845,10.43442,28.88678
298,391614205,14.89422,10.95623,26.95055
299,391714328,16.99198,10.08721,21.02583
300,391814219,16.78502,9.988357,30.5566
301,391914236,14.40256,9.091498,28.25814
302,392014228,14.34417,11.57531,24.4508
303,392114274,17.31911,11.51377,22.74684
304,392214186,18.79673,11.22272,27.96934
305,392314312,16.67398,11.27213,34.9123
306,392414210,20.18907,9.666284,33.71898
307,392514249,19.30945,10.82055,29.37906
308,392614234,16.31605,9.961053,29.26569
309,392714348,15.94931,11.70389,34.63061
310,392814321,20.45049,11.0603,23.45187
311,392914257,20.73392,10.38133,25.18982
312,393014251,19.8069,10.32483,23.07074
313,393114276,19.39503,8.548542,20.87932
314,393214233,14.76973,11.77048,26.72516
315,393314229,20.64126,10.33747,22.71564
316,393414261,22.12498,9.934304,19.59115
317,393514289,22.82128,9.368986,19.46917
318,393614225,20.92578,10.62783,18.72177
319,393714261,17.18578,10.16401,25.47168
320,393814274,18.46594,10.30332,27.59093
321,393914210,22.25802,11.4224,23.93892
322,394014259,24.63921,11.7535,22.62142
323,394114266,23.26501,9.797238,23.41244
324,394214188,21.1235,10.25114,19.98536
325,394314227,20.21338,10.50156,23.44337
326,394414300,19.68315,9.460732,25.82688
327,394514253,20.4211,10.50196,23.93601
328,394614259,20.17623,11.12693,21.19482
329,394714307,22.31325,10.65052,23.92145
330,394814280,20.49789,9.713554,23.17194
331,394914166,21.20738,9.583478,29.5833
332,395014279,18.79578,11.29354,26.80792
333,395114227,15.23578,12.12381,26.42272
334,395214216,16.0945,11.80622,32.99164
335,395314279,20.69961,11.70933,31.4827
336,395414183,22.39161,11.28896,30.91171
337,395514235,21.08706,9.871393,31.50474
338,395614227,20.28094,9.301064,26.00231
339,395714207,18.10228,9.765729,26.32707
340,395814249,18.76356,9.333144,26.45917
341,395914237,16.9128,9.096034,28.69221
342,396014244,20.73466,8.619771,24.19431
343,396114213,21.74345,8.623699,23.96905
344,396214265,20.9439,9.025393,19.14651
345,396314210,20.25298,10.56003,23.62887
346,396414221,19.90623,11.17159,22.20236
347,396514261,21.46928,12.01262,20.12863
348,396614207,23.46685,9.133694,21.69741
349,396714302,20.61267,7.218222,22.06138
350,396814323,22.4607,5.494103,22.19184
351,396914302,22.90848,7.682304,20.56734
352,397014283,19.28633,10.74737,26.75668
353,397114260,17.60655,12.36167,24.79767
354,397214218,18.13981,11.9396,19.96986
355,397314289,16.04914,11.3417,26.80418
356,397414290,21.02245,8.634367,24.67971
357,397514213,19.25823,11.37235,24.72609
358,397614216,16.50051,8.445539,25.81327
359,397714216,18.52994,9.158037,26.73933
360,397814259,14.94332,11.05309,25.57191
361,397914202,12.67074,10.14977,19.3943
362,398014224,14.82116,9.000184,19.39828
363,398114243,13.22398,10.30093,35.20431
364,398214263,14.66603,10.93088,31.17138
365,398314250,16.23616,11.53198,27.69107
366,398414219,17.63054,10.52353,26.34291
367,398514235,17.10807,11.29072,27.35526
368,398614205,17.99371,12.42216,24.24615
369,398714239,19.0259,12.04293,19.98487
370,398814200,17.26141,9.940306,26.51346
371,398914252,18.45165,10.62636,27.11817
372,399014301,19.4572,11.05956,23.76662
373,399114255,18.04052,11.13381,30.78179
374,399214208,18.06748,11.59111,31.50629
375,399314276,18.59109,11.40864,23.80337
376,399414232,19.94115,11.31114,24.09662
377,399514237,17.54664,9.037082,29.33534
378,399614221,13.97012,7.693269,23.95856
379,399714213,12.79901,10.77413,26.81998
380,399814253,15.58417,9.636539,26.0376
381,399914229,15.10918,8.484156,28.5702
382,400014274,11.72344,9.525469,32.99931
383,400114262,16.88845,10.15084,30.03939
384,400214216,16.16974,9.183527,27.32927
385,400314222,16.22462,10.67075,40.89596
386,400414233,14.33305,8.14203,30.87057
387,400514232,16.65765,9.469636,31.81667
388,400614283,14.33466,9.585643,31.94466
389,400714293,13.76963,10.25883,31.98633
390,400814218,14.19067,9.708412,37.18402
391,400914257,15.92217,8.842544,29.87137
392,401014304,16.32933,10.08997,23.22707
393,401114273,14.80476,10.29515,24.47039
394,401214189,13.51453,11.70445,28.32024
395,401314268,14.45185,12.04497,27.93784
396,401414209,14.76834,10.6883,31.85639
397,401514241,15.84966,11.60463,24.23011
398,401614300,16.32676,10.7933,28.09034
399,401714208,15.1414,12.35646,35.14283
400,401814262,14.86065,9.7253,46.68983
401,401914227,15.63722,9.971291,40.19056
402,402014210,16.37644,9.482027,31.75762
403,402114211,16.14153,11.88037,28.90647
404,402214259,16.55678,12.15563,30.53061
405,402314256,18.83482,10.02481,31.83849
406,402414212,18.65312,9.155179,35.28935
407,402514271,17.57608,9.931699,31.90533
408,402614253,16.49134,10.1807,32.01666
409,402714285,16.46346,10.91829,24.54689
410,402814208,16.12433,10.64625,37.80775
411,402914310,14.60019,9.443044,44.15349
412,403014275,16.16595,11.36201,31.12858
413,403114170,20.05796,9.923333,26.85333
414,403214292,19.37043,9.826969,33.33805
415,403314262,16.63291,11.58029,31.29795
416,403414230,16.20495,12.36475,30.58655
417,403514270,17.13411,10.34956,28.99778
418,403614270,15.70442,10.90515,34.70687
419,403714224,14.66596,9.968603,33.03015
420,403814191,14.56039,10.89406,42.52112
421,403914217,15.28861,10.73548,40.98983
422,404014240,19.73534,9.906439,34.64634
423,404114236,20.9368,9.964747,31.97282
424,404214226,21.1334,9.054221,29.2635
425,404314255,18.80623,9.919844,28.3866
426,404414197,20.18743,11.78652,30.39733
427,404514249,20.93926,10.55542,25.97839
428,404614269,19.51824,8.835715,23.7772
429,404714253,19.5131,9.647873,24.03248
430,404814219,18.96122,9.844426,24.21005
431,404914253,16.94963,8.274002,22.41104
432,405014232,17.38283,9.097628,22.83253
433,405114238,21.48078,10.33908,24.18081
434,405214289,20.98949,10.63873,28.99743
435,405314280,17.63767,12.08786,34.01325
436,405414225,18.73423,11.72225,26.732
437,405514333,21.06478,10.96694,27.38833
438,405614244,19.10284,10.11122,33.38004
439,405714194,18.11613,10.52535,32.8362
440,405814298,19.1229,10.03277,27.47559
441,405914148,19.88428,10.30557,32.41253
442,406014255,18.77078,8.300431,29.27044
443,406114314,17.90328,10.31054,28.90869
444,406214252,15.75634,10.80541,28.58
445,406314274,16.87582,10.18859,25.91078
446,406414183,20.33007,11.0857,24.22986
447,406514277,19.38561,10.87304,21.71656
448,406614234,19.09114,10.7473,23.33605
449,406714231,20.90228,10.23174,24.92309
450,406814307,22.31792,10.85853,28.9143
451,406914164,18.60983,13.08555,26.59641
452,407014252,18.90275,11.18947,22.08486
453,407114279,22.93019,11.74622,21.14972
454,407214147,20.24777,10.6827,24.78035
455,407314223,22.61026,9.941748,17.92858
456,407414322,21.31333,8.820714,20.27253
457,407514245,19.81135,9.373637,18.28211
458,407614220,19.07079,9.907067,26.64127
459,407714290,18.47134,9.381991,21.44386
460,407814257,17.5498,10.61938,28.05046
461,407914242,18.07509,11.48322,20.88005
462,408014206,18.19589,10.30127,35.92057
463,408114339,18.32771,10.16075,26.43014
464,408214241,17.03849,10.19144,32.86346
465,408314227,16.98329,11.12817,24.96081
466,408414219,16.09014,9.300985,32.54642
467,408514202,17.77569,9.012017,25.03674
468,408614265,18.04599,8.859629,25.87186
469,408714281,18.09889,10.02825,21.12352
470,408814331,18.68699,10.75686,19.34974
471,408914256,20.28436,8.700297,20.04263
472,409014225,18.74229,10.2746,24.13068
473,409114254,17.3007,7.865662,18.23361
474,409214251,19.51807,10.94856,20.77295
475,409314245,23.18873,10.02082,15.09191
476,409414221,21.81013,8.321017,16.44286
477,409514287,17.96261,9.276813,18.78711
478,409614201,13.70042,13.33834,20.17689
479,409714269,20.66931,10.76692,19.57749
480,409814169,19.8699,10.61728,27.29959
481,409914252,17.3919,12.77293,27.82319
482,410014264,24.23935,9.911344,21.3421
483,410114209,19.24622,13.65685,21.69449
484,410214191,17.25391,11.80154,20.78923
485,410314285,19.37804,9.938264,17.84891
486,410414095,21.82014,12.67415,20.93055
487,410514251,24.52077,12.80043,23.15431
488,410614224,26.0827,12.65409,19.4033
489,410714225,21.2163,10.24193,21.24049
490,410814254,20.92039,11.71198,24.68219
491,410914220,22.80332,10.98857,28.67791
492,411014218,20.01763,11.40742,28.5748
493,411114187,18.57066,11.49263,32.7691
494,411214251,20.11835,10.33122,35.67923
495,411314218,18.68575,10.79075,32.19374
496,411414263,16.55202,11.37061,25.2461
497,411514286,14.15444,9.840455,27.54587
498,411614326,19.32967,10.06787,33.73586
499,411714325,21.5991,9.526628,36.84845
500,411814226,21.30062,9.666416,29.23415
501,411914238,19.58875,10.94659,32.3147
502,412014233,18.26177,12.08216,29.53554
503,412114264,21.28923,10.38,34.21352
504,412214208,16.99068,10.23628,29.38295
505,412314249,17.02874,12.27372,31.10258
506,412414251,17.81449,11.31583,27.75872
507,412514241,17.55245,10.56211,27.98363
508,412614314,16.21878,11.71823,27.16876
509,412714207,19.37088,12.77642,31.45178
510,412814208,21.50953,9.726608,30.17392
511,412914226,20.45227,9.636842,35.57229
512,413014225,18.00955,8.578629,46.15271
513,413114264,17.97664,10.15849,42.19353
514,413214224,15.79774,13.06815,42.68183
515,413314261,17.97733,10.86969,33.91589
516,413414240,16.30738,9.73772,28.37394
517,413514278,16.36154,10.0041,41.00531
518,413614164,13.91585,9.650145,33.19048
519,413714274,13.49517,10.33522,39.70287
520,413814206,11.87783,9.625125,42.84741
521,413914217,10.88871,9.954469,42.03585
522,414014338,12.6503,10.88753,36.66315
523,414114264,13.19346,11.60542,34.45707
524,414214275,12.65496,13.00398,44.72779
525,414314274,14.35471,11.24021,48.11984
526,414414289,13.97554,9.293951,50.90334
527,414514215,14.02708,9.915533,51.20027
528,414614214,12.96675,10.23083,41.96832
529,414714264,14.2456,10.52805,35.97078
530,414814249,13.44383,10.12062,29.62932
531,414914211,15.51459,9.93453,32.88942
532,415014250,14.38675,12.11058,33.90136
533,415114266,13.46074,10.74085,46.38995
534,415214277,14.00706,9.571441,55.58042
535,415314328,16.30497,9.196194,42.95244
536,415414242,15.1374,10.19509,45.64086
537,415514226,14.92961,9.537934,44.79836
538,415614204,15.10533,10.2101,45.08064
539,415714282,15.57148,10.87032,36.01812
540,415814340,14.90631,11.26576,34.90086
541,415914194,16.15284,10.55197,31.3134
542,416014272,16.02581,12.50299,36.87315
543,416114214,14.53255,11.55406,41.78184
544,416214278,15.83287,11.81185,41.44805
545,416314275,14.10323,11.20708,37.39714
546,416414186,13.21346,11.26978,39.5939
547,416514317,13.9094,11.01756,34.99344
548,416614268,14.74754,11.11912,35.30482
549,416714237,16.99992,10.86135,33.80297
550,416814209,16.89128,11.32012,49.46082
551,416914277,15.22383,11.4852,49.52689
552,417014237,15.05496,12.71462,48.82543
553,417114305,19.61563,10.35076,33.85762
554,417214246,19.92494,12.6263,37.48189
555,417314291,15.76855,11.65933,40.94972
556,417414188,18.81209,11.4925,34.19346
557,417514263,16.28675,10.7117,44.7679
558,417614215,17.46695,12.12351,40.16756
559,417714226,18.73933,12.9333,35.92044
560,417814277,17.99204,11.68366,40.18541
561,417914272,15.1698,13.89238,39.31343
562,418014266,15.15397,12.88019,36.86288
563,418114225,15.27586,12.94915,36.16667
564,418214219,15.99885,12.5675,38.73573
565,418314211,17.94979,10.89934,42.16344
566,418414205,19.27136,9.95976,44.62411
567,418514316,21.70028,10.51137,30.99348
568,418614245,19.65672,10.58704,47.49787
569,418714253,20.31014,9.931527,36.46717
570,418814256,18.10005,9.777322,34.68211
571,418914288,20.15204,8.941855,38.69775
572,419014253,21.85371,10.18868,39.07423
573,419114189,17.45858,12.35229,46.54245
574,419214217,21.97836,10.04947,39.88175
575,419314246,19.17831,9.858947,31.41205
576,419414217,17.84327,10.57886,36.33478
577,419514286,19.89636,11.91611,32.92051
578,419614259,19.15641,11.64372,45.15652
579,419714212,19.09213,13.05891,40.43843
580,419814297,16.69811,14.13894,44.43959
581,419914256,15.95551,11.77582,41.34381
582,420014291,17.16745,11.505,43.72859
583,420114214,16.56351,13.95231,41.02522
584,420214243,16.00047,13.2951,43.22191
585,420314212,18.15372,12.17975,32.26484
586,420414266,17.11927,11.83798,39.80745
587,420514281,15.41208,10.93245,48.35325
588,420614276,17.98102,12.25737,44.12095
589,420714238,20.05202,12.24045,36.50605
590,420814222,17.56118,14.0449,47.54105
591,420914213,18.39758,11.69474,38.77748
592,421014232,17.32147,13.60111,41.83359
593,421114270,18.09789,13.11246,36.8408
594,421214209,16.09788,13.67637,40.90146
595,421314218,17.0521,13.03737,43.51957
596,421414270,17.73478,13.28932,43.25063
597,421514279,18.06271,13.25124,43.44115
598,421614228,17.33863,13.40019,44.0577
599,421714258,16.5466,15.50398,47.24513
600,421814329,16.08161,14.32731,44.43504
601,421914237,17.4422,12.8659,37.68674
602,422014199,17.22393,11.46712,42.6097
603,422114253,17.94249,13.36827,51.38471
604,422214194,16.7654,13.13075,43.46177
605,422314241,16.51556,12.47363,54.66458
606,422414160,18.62953,12.18859,45.61642
607,422514294,17.21671,12.09244,60.96367
608,422614218,16.40396,14.37137,43.75196
609,422714220,15.81268,12.78141,46.80565
610,422814213,18.32686,11.74998,46.74019
611,422914280,17.79698,11.90452,40.97004
612,423014239,14.77589,10.51618,54.54492
613,423114253,16.66735,12.71571,47.82788
614,423214268,17.7109,14.3432,43.55494
615,423314231,19.25022,13.72966,43.23796
616,423414255,16.0481,13.16775,53.33197
617,423514282,17.17701,11.85943,42.28826
618,423614211,15.82912,11.16056,50.60318
619,423714208,17.89404,11.51682,44.7659
620,423814216,18.81,12.77008,42.93312
621,423914193,17.39856,12.34564,53.68274
622,424014221,16.52344,14.15926,49.95482
623,424114248,15.03997,12.88188,46.43113
624,424214233,15.18939,12.94557,39.95906
625,424314233,14.09321,12.13423,70.01236
626,424414244,15.42773,12.94641,56.25658
627,424514190,13.98475,12.2988,63.07327
628,424614207,15.73963,15.0128,48.01171
629,424714209,15.29044,14.43651,47.73542
630,424814240,15.61609,14.96299,60.69573
631,424914204,17.01651,16.23999,56.01096
632,425014285,15.01795,16.173,55.03074
633,425114239,15.10158,14.32831,58.04052
634,425214216,16.49083,13.85902,61.27837
635,425314248,17.25746,15.84195,52.07845
636,425414212,15.48233,13.79291,46.87363
637,425514227,15.28373,11.9058,57.87993
638,425614275,16.93309,14.65047,48.34468
639,425714214,15.57841,13.72506,45.70669
640,425814234,16.11598,15.12577,47.75383
641,425914225,16.78701,13.11948,52.8863
642,426014305,17.49137,12.16655,49.99184
643,426114278,18.02233,12.66259,53.37191
644,426214188,17.06778,14.31984,48.45076
645,426314341,16.38045,13.39852,47.64108
646,426414280,16.85231,12.97551,43.98252
647,426514293,16.49808,13.69893,46.18904
648,426614258,17.70946,13.53606,53.16019
649,426714312,16.36016,14.03093,57.76707
650,426814227,17.44482,13.38234,50.34977
651,426914220,15.179,15.4298,51.87088
652,427014300,15.03259,14.19266,57.99903
653,427114254,16.69784,13.03133,76.42067
654,427214195,13.61235,14.99712,63.11666
655,427314261,18.76569,12.06162,43.17642
656,427414249,19.4521,13.66917,44.84643
657,427514217,16.51218,14.01803,46.93676
658,427614145,20.08352,13.25168,38.53406
659,427714260,18.15084,12.19339,38.6479
660,427814221,19.81248,12.97058,35.35925
661,427914307,21.42872,13.93524,35.92309
662,428014281,18.99537,13.69761,45.79997
663,428114217,18.15397,12.61036,47.48953
664,428214226,18.90124,13.40696,43.38993
665,428314204,19.19803,12.75647,45.97543
666,428414281,18.9734,14.83769,52.59074
667,428514296,19.65738,13.16804,46.33109
668,428614243,18.07844,13.1227,45.63522
669,428714218,16.99828,13.90108,42.76368
670,428814295,16.76743,12.81468,47.56643
671,428914237,15.82243,13.58034,51.2087
672,429014280,16.09608,14.2659,44.57498
673,429114288,17.14349,13.67209,41.84266
674,429214199,16.76049,14.56647,50.94171
675,429314288,16.72878,12.94868,41.60149
676,429414284,16.01548,15.95098,48.57328
677,429514257,18.33247,15.37408,52.35762
678,429614262,17.92894,16.8213,57.96177
679,429714207,17.70192,17.08096,55.53041
680,429814288,17.89088,18.27692,51.87323
681,429914213,16.81289,21.80216,81.05743
682,430014270,15.46535,18.16935,78.83717
683,430114236,15.67205,19.17607,61.67322
684,430214194,16.93538,17.28057,63.91001
685,430314273,16.99222,16.96091,65.56573
686,430414275,16.36728,16.66579,68.99574
687,430514338,15.15701,16.70736,72.1979
688,430614236,15.15632,15.81504,66.15696
689,430714279,15.67852,16.2508,59.78938
690,430814307,16.43705,16.1075,48.92244
691,430914227,18.35023,14.80189,46.70702
692,431014284,17.00545,14.77596,46.52893
693,431114280,17.52599,14.55864,43.35499
694,431214199,15.6313,13.01784,53.66426
695,431314283,15.92278,13.81728,52.90221
696,431414197,16.26067,13.50735,49.55607
697,431514266,17.25569,13.27266,50.03791
698,431614244,17.34277,14.23766,56.49488
699,431714202,16.06904,13.28738,68.60648
700,431814255,18.06233,11.97919,54.10162
701,431914268,16.29388,12.59725,54.95985
702,432014232,15.67959,14.03365,57.16838
703,432114283,14.74234,13.02811,54.46786
704,432214275,16.00419,12.31235,48.37004
705,432314271,15.87319,11.22742,41.88437
706,432414262,18.15158,12.79164,38.36384
707,432514313,16.14487,13.72221,41.96585
708,432614314,16.86566,13.43363,37.81942
709,432714245,25.92248,11.53418,29.07908
710,432814236,21.42212,13.81491,32.61264
711,432914291,16.40397,14.71804,32.52123
712,433014272,17.09821,13.64108,35.51685
713,433114340,18.59276,16.55723,30.4362
714,433214191,23.63892,13.80554,35.62109
715,433314240,20.00452,11.24275,38.23301
716,433414313,20.44328,11.13524,34.43783
717,433514208,24.39702,10.22105,32.15453
718,433614202,25.29564,11.07052,31.11757
719,433714263,18.804,12.06662,33.82346
720,433814230,18.09485,13.33538,36.62137
721,433914272,15.68579,14.86292,29.43243
722,434014286,15.91829,13.54952,29.20873
723,434114221,17.03432,12.0614,28.39479
724,434214268,19.44968,10.13819,29.60381
725,434314230,18.09329,10.22718,31.94197
726,434414251,17.01038,12.4828,40.54296
727,434514221,16.5805,11.11598,39.97218
728,434614267,18.03028,10.06563,36.07447
729,434714320,16.26594,10.73295,28.01911
730,434814229,15.58908,11.18604,27.09081
731,434914291,16.16876,10.94145,25.66518
732,435014205,16.49121,12.16606,39.20229
733,435114282,18.82043,12.18134,33.61845
734,435214211,20.12301,10.75456,28.66562
735,435314217,21.67327,10.76383,23.90517
736,435414210,19.22286,11.158,28.15921
737,435514273,18.12325,10.34984,26.12493
738,435614267,18.92626,12.20042,25.47676
739,435714270,21.98215,11.33891,24.14202
740,435814282,23.60377,9.474166,27.32117
741,435914226,21.54851,11.06536,25.76502
742,436014258,18.80094,10.46168,28.97632
743,436114286,19.53339,11.37279,25.40637
744,436214195,18.18642,10.5015,28.89921
745,436314276,17.09089,12.20803,34.46073
746,436414234,17.03155,11.63855,29.19706
747,436514229,18.71594,12.56264,32.44645
748,436614201,16.7208,13.62643,34.82172
749,436714312,19.24685,14.00509,25.71102
750,436814297,22.77579,11.1877,28.31078
751,436914316,21.74653,10.12466,36.39105
752,437014246,18.65756,12.17392,36.19299
753,437114255,18.82467,11.6809,38.44872
754,437214189,17.89575,10.28886,32.69422
755,437314256,16.42704,10.91684,26.86394
756,437414274,18.47469,11.95265,22.68857
757,437514207,18.07854,10.12629,32.89344
758,437614276,17.42235,10.06522,28.04401
759,437714221,17.9595,11.48934,29.52489
760,437814306,18.76134,11.16971,23.93144
761,437914319,17.90175,9.985929,30.34333
762,438014167,17.312,9.763029,25.50076
763,438114223,18.88996,12.14634,31.59989
764,438214258,18.19465,11.54413,26.2663
765,438314217,20.13968,10.99264,24.91228
766,438414221,20.27962,11.11762,27.93871
767,438514271,21.84002,10.48204,33.51274
768,438614223,18.94785,9.281286,34.22474
769,438714326,18.39854,11.26992,33.02301
770,438814271,19.16331,12.35945,31.75846
771,438914367,21.18294,11.03483,23.60151
772,439014285,19.74967,10.40299,31.04525
773,439114162,19.79278,11.46813,27.73731
774,439214242,18.3473,10.64527,31.66484
775,439314219,19.67572,11.92745,31.24073
776,439414291,20.62708,11.19235,22.03225
777,439514233,17.23088,11.42139,36.08344
778,439614272,19.10473,11.2901,30.13298
779,439714219,19.22735,9.907072,22.08902
780,439814228,17.99579,10.98327,31.0955
781,439914242,18.04648,10.32097,33.69758
782,440014217,20.35319,10.18993,32.95567
783,440114197,17.00659,12.57792,26.23809
784,440214274,17.63644,10.88273,23.25883
785,440314249,16.65726,10.71174,33.20037
786,440414232,16.28268,11.10351,29.05701
787,440514287,17.70315,9.272365,22.12368
788,440614228,19.22371,10.52525,25.64973
789,440714220,17.61916,11.17577,28.40562
790,440814238,19.21481,10.03523,37.34059
791,440914212,18.70638,12.04695,33.06238
792,441014341,18.98899,12.21411,26.91605
793,441114262,17.25808,11.45016,24.88717
794,441214247,14.55865,11.53356,35.04869
795,441314257,15.91325,11.83796,40.49252
796,441414297,19.74205,11.67296,40.12117
797,441514249,21.40438,10.40371,34.37316
798,441614205,19.86165,10.88772,24.70068
799,441714280,18.74258,11.30241,23.22215
800,441814232,16.59178,12.71721,23.80246
801,441914226,15.86747,13.92058,23.82462
802,442014264,19.04697,11.77518,31.83522
803,442114293,17.73617,10.39605,34.83035
804,442214171,16.52698,10.01148,29.23716
805,442314259,15.60547,13.51931,24.15103
806,442414201,18.1314,13.51755,26.30648
807,442514278,19.29199,13.5273,25.35513
808,442614216,22.94374,10.99674,23.58804
809,442714210,23.15443,9.813155,33.69751
810,442814307,18.10371,12.33871,27.08419
811,442914195,21.65461,11.49193,31.69703
812,443014269,18.40863,11.47253,27.59735
813,443114342,16.01696,13.54283,29.99474
814,443214233,20.709,11.34588,32.50365
815,443314276,16.55838,10.33251,29.11961
816,443414250,18.45069,11.1871,29.93376
817,443514219,17.67086,11.19901,28.23001
818,443614265,18.14557,10.47568,29.95005
819,443714268,17.90252,10.39112,32.31355
820,443814263,17.1912,9.618515,34.33371
821,443914226,18.11823,11.45207,34.81401
822,444014274,19.28928,10.85483,28.05765
823,444114322,17.65372,10.48022,28.2198
824,444214217,16.44101,12.42318,37.96371
825,444314291,17.00503,12.49792,43.55755
826,444414245,17.59265,9.862395,41.91561
827,444514221,19.65136,10.05538,41.02235
828,444614284,20.85093,12.32232,35.77862
829,444714228,17.21291,12.44602,34.0708
830,444814223,15.95605,12.3944,28.55754
831,444914271,18.06274,13.54035,36.24068
832,445014265,18.98413,10.89742,34.21946
833,445114259,17.22388,12.74776,28.724
834,445214290,16.56696,9.568179,35.88543
835,445314239,16.99991,11.70566,34.99649
836,445414202,16.8055,10.77798,37.62728
837,445514290,15.84596,11.02677,40.52213
838,445614191,15.83848,12.10561,42.69
839,445714278,14.90122,12.3177,38.53024
840,445814213,13.79869,10.88571,47.97816
841,445914238,14.50557,11.98208,38.4356
842,446014243,16.11291,11.74273,45.87027
843,446114203,15.03606,11.94616,44.10766
844,446214194,14.35955,12.42367,40.8245
845,446314236,14.11174,12.80194,41.4945
846,446414204,15.69356,10.76953,38.10508
847,446514283,17.85229,10.0216,39.37822
848,446614281,16.41331,10.62527,36.44234
849,446714208,16.98713,10.00517,30.30793
850,446814259,16.4882,9.491233,36.06873
851,446914226,16.52702,8.433638,37.96988
852,447014206,13.53862,9.72755,43.08086
853,447114176,12.54975,10.54362,50.55304
854,447214206,14.32217,10.6359,43.09517
855,447314274,14.49297,10.30969,35.62354
856,447414241,14.78055,10.54836,34.43588
857,447514250,14.36502,10.08539,43.66695
858,447614289,14.64724,12.10117,39.58007
859,447714220,14.63363,11.37295,44.41329
860,447814203,15.12302,11.68116,39.20461
861,447914303,15.39155,11.7939,40.28971
862,448014201,15.27571,12.55454,31.15014
863,448114288,14.3625,13.486,36.06223
864,448214272,14.12411,14.02904,46.78966
865,448314236,15.93779,12.15276,36.36627
866,448414278,16.32025,14.12306,33.07393
867,448514243,14.85495,12.92913,39.70443
868,448614253,14.92688,11.62736,47.03584
869,448714265,15.14208,11.50867,51.42656
870,448814204,14.4646,11.26024,47.30822
871,448914273,16.71694,11.07696,43.57793
872,449014161,16.35503,11.4627,54.63455
873,449114228,15.88109,11.82603,56.8182
874,449214147,15.53634,11.48585,45.63459
875,449314328,15.82045,13.54941,41.05258
876,449414336,16.70677,12.68341,36.01898
877,449514293,15.73013,12.33306,43.39908
878,449614201,16.29127,12.18416,49.40194
879,449714304,17.03873,11.21039,54.6568
880,449814246,16.07835,12.3277,52.55921
881,449914228,18.0099,11.78125,51.63712
882,450014218,17.44073,10.70422,39.58233
883,450114282,15.15935,10.35765,46.43943
884,450214260,17.88363,10.7372,41.63095
885,450314221,18.19162,11.89223,37.06003
886,450414236,17.1725,10.79464,52.94873
887,450514238,16.15312,11.40756,50.04319
888,450614104,16.60833,12.32858,50.14295
889,450714161,17.51124,11.38884,45.19765
890,450814259,19.48408,10.64103,43.91997
891,450914298,17.2774,13.96446,50.82564
892,451014213,15.75312,13.06944,51.4125
893,451114280,15.37673,12.5913,44.48061
894,451214178,17.26682,13.35782,48.21994
895,451314262,14.70962,14.10764,51.06675
896,451414162,15.70456,14.75334,49.44183
897,451514313,16.18223,14.42823,59.25879
898,451614251,15.2259,14.41807,59.74804
899,451714218,16.5622,15.22261,52.18229
900,451814206,17.22363,15.14458,55.33547
901,451914240,17.16961,16.71685,54.42992
902,452014265,17.19648,17.03849,52.41645
903,452114216,17.87735,15.66768,48.76609
904,452214304,17.32161,13.61298,37.62747
905,452314270,15.74602,12.06538,48.75954
906,452414216,15.89104,11.74786,41.63606
907,452514236,13.11549,13.43341,52.65994
908,452614285,14.02869,14.15762,47.8886
909,452714224,15.42282,15.28242,52.31677
910,452814283,16.77003,16.16441,49.43527
911,452914229,15.73779,15.90361,54.09106
912,453014216,14.86648,18.48697,64.30901
913,453114297,16.03218,16.13694,53.75032
914,453214226,16.23123,13.89091,69.14539
915,453314223,15.83534,13.37626,49.15009
916,453414248,16.64382,12.18214,41.85891
917,453514256,16.68146,12.96957,40.11976
918,453614299,17.9157,10.94686,36.87576
919,453714242,20.14005,9.895712,43.24325
920,453814279,21.77377,10.24309,34.36864
921,453914221,18.85438,11.32037,48.13916
922,454014221,16.35407,14.00449,39.44629
923,454114224,16.24551,12.07866,50.92654
924,454214198,15.62172,14.2639,41.78298
925,454314271,14.97626,14.63061,37.75778
926,454414206,14.60246,12.9676,37.44397
927,454514265,14.1371,12.0939,42.60594
928,454614167,15.53057,11.27283,39.85935
929,454714291,15.61684,13.01068,37.38507
930,454814226,14.76449,13.11987,59.30069
931,454914273,15.08646,15.4845,63.79641
932,455014224,15.58418,13.97292,61.89469
933,455114236,15.49864,16.36031,55.99443
934,455214178,13.80686,15.35261,53.3462
935,455314253,14.81826,13.10778,50.77998
936,455414218,16.00212,13.68985,59.56095
937,455514209,14.16381,12.91316,44.40302
938,455614227,15.11322,11.04852,37.61812
939,455714262,14.99831,10.95448,42.35848
940,455814254,14.43451,13.09828,39.39155
941,455914237,15.36371,11.38545,44.52089
942,456014216,14.9518,13.77109,37.83174
943,456114210,21.41155,13.26119,34.92677
944,456214248,23.089,12.30451,28.02768
945,456314232,20.17591,12.04096,38.88758
946,456414212,20.16259,9.451097,35.04182
947,456514294,19.79787,9.618873,26.77881
948,456614226,15.86166,11.09734,37.71778
949,456714314,18.88486,11.23657,37.11749
950,456814218,18.8938,11.66433,32.37199
951,456914220,15.87566,12.00308,43.84255
952,457014274,20.00905,12.19889,32.59468
953,457114266,20.28597,11.99872,37.26948
954,457214215,21.50219,12.05681,31.84307
955,457314235,17.11717,10.59242,38.45146
956,457414230,18.53738,14.19677,38.62326
957,457514227,19.78306,11.9772,33.77517
958,457614231,17.11165,11.01152,43.98573
959,457714285,18.84465,10.47764,33.08847
960,457814269,18.63851,10.26013,32.87735
961,457914240,22.30394,12.53338,33.90777
962,458014313,22.5936,10.94041,33.6574
963,458114254,18.43374,11.66991,40.51126
964,458214243,18.24574,11.33411,37.46544
965,458314250,19.35334,9.62765,40.73363
966,458414189,20.45284,11.71373,34.25662
967,458514311,22.20055,11.52668,38.367
968,458614284,18.10145,12.21714,39.6758
969,458714269,17.76932,12.15802,34.95501
970,458814234,18.45612,10.63017,41.34755
971,458914288,17.93344,12.73927,38.61477
972,459014231,14.55913,11.98051,41.57785
973,459114220,18.17475,11.84119,34.74444
974,459214313,18.868,10.98106,34.36654
975,459314254,19.15352,11.26365,32.51442
976,459414255,18.76043,10.52349,46.38926
977,459514271,16.37491,13.53199,38.21304
978,459614179,18.00205,13.29084,34.05912
979,459714257,19.0162,11.18937,37.64792
980,459814274,19.99432,12.83663,33.92856
981,459914308,16.28119,11.94932,35.19961
982,460014232,17.22012,12.62966,32.92587
983,460114256,16.67411,11.18751,38.73258
984,460214260,19.44297,10.6569,32.55732
985,460314303,18.43982,13.32026,31.906
986,460414190,18.11977,12.37319,31.96518
987,460514289,17.03401,12.94338,36.5088
988,460614228,14.89865,11.76886,39.52809
989,460714232,18.26542,11.14802,38.52579
990,460814230,17.10271,12.93493,41.95972
991,460914263,18.75434,12.80307,32.65701
992,461014205,18.98989,12.76477,33.68734
993,461114235,18.51625,11.66155,32.03891
994,461214235,21.29404,10.65567,32.56208
995,461314268,18.97226,12.25047,39.59681
996,461414170,17.75456,11.70008,44.56785
997,461514220,16.2782,13.49758,45.32617
998,461614223,15.34429,12.44184,39.79756
999,461714228,18.02677,11.67575,33.5057
1000,461814226,19.53962,10.32507,29.50361
1001,461914239,20.13277,9.744782,30.48769
1002,462014256,19.486,11.87665,35.06811
1003,462114292,19.74419,12.57715,32.75363
1004,462214216,16.73655,13.16084,38.49215
1005,462314236,18.99068,13.82588,38.89814
1006,462414214,17.139,15.24829,36.44764
1007,462514277,14.49689,14.38894,47.9753
1008,462614265,17.09136,13.97433,35.18312
1009,462714292,17.12112,13.83746,34.50359
1010,462814245,19.61633,13.81687,37.65178
1011,462914194,18.54717,15.51317,40.75628
1012,463014264,21.00374,12.68606,35.73415
1013,463114275,17.78749,12.17858,35.15495
1014,463214186,17.18671,12.06976,42.54095
1015,463314237,15.77863,12.49101,54.83506
1016,463414221,14.87955,14.71493,54.78344
1017,463514238,15.58654,13.88043,54.94735
1018,463614293,16.15362,14.00478,48.1619
1019,463714315,16.17255,14.51984,49.79397
1020,463814228,18.30977,12.62419,41.86356
1021,463914235,17.12247,12.6498,41.26161
1022,464014245,16.85335,14.07629,42.18357
1023,464114274,15.73814,12.82958,48.42251
1024,464214228,18.38097,14.99747,47.28556
1025,464314257,15.10279,13.4442,38.69018
1026,464414219,19.13164,11.81897,36.85463
1027,464514245,17.93794,13.89298,43.81431
1028,464614280,18.8005,13.23898,41.22486
1029,464714257,15.88395,13.90087,53.63016
1030,464814234,16.24836,15.42327,50.42206
1031,464914216,17.13952,13.24177,44.09234
1032,465014265,16.79873,13.34117,44.23959
1033,465114217,17.86856,13.89673,42.82331
1034,465214186,16.88855,13.27598,41.51583
1035,465314319,16.66821,12.94784,43.15945
1036,465414251,15.71952,12.06703,53.03916
1037,465514258,15.62168,12.07982,51.06095
1038,465614203,17.69197,12.39828,48.14955
1039,465714306,18.40678,12.27905,45.62575
1040,465814191,15.89354,11.81969,53.39021
1041,465914229,15.1504,14.29486,53.29903
1042,466014204,17.35552,12.28238,44.74531
1043,466114280,15.9929,13.21027,43.35592
1044,466214264,15.96123,11.5152,49.42349
1045,466314234,16.66828,11.30036,46.05529
1046,466414286,18.23915,12.92089,43.57417
1047,466514240,17.89339,12.44265,43.48949
1048,466614244,15.98523,14.30046,50.56061
1049,466714251,17.80951,13.64458,40.75095
1050,466814229,17.39626,12.44824,39.18073
1051,466914215,16.50054,13.12828,51.24556
1052,467014247,16.14512,14.36379,56.98802
1053,467114243,20.02798,13.26664,43.69224
1054,467214203,20.00695,12.10522,41.27272
1055,467314312,17.56785,12.22211,44.70852
1056,467414238,17.75502,12.77316,35.75274
1057,467514278,16.99071,11.53123,41.34266
1058,467614203,15.79115,10.68111,41.85879
1059,467714247,17.56323,11.96999,41.95555
1060,467814228,16.86046,12.10016,37.77987
1061,467914270,20.1577,12.70415,38.28279
1062,468014221,17.74652,11.88065,45.07103
1063,468114275,16.51036,13.83865,38.57401
1064,468214291,16.61025,13.17706,38.8991
1065,468314344,18.99173,11.51315,34.70127
1066,468414275,19.70479,12.7677,35.57692
1067,468514243,19.06762,12.50034,37.54139
1068,468614199,16.80437,12.34974,49.55709
1069,468714237,16.29595,13.04551,49.4276
1070,468814328,17.64488,13.3892,47.46888
1071,468914228,15.63582,12.25032,42.02193
1072,469014190,18.26539,12.21271,37.52883
1073,469114249,18.6279,11.69472,43.63205
1074,469214214,17.89482,13.96583,41.81179
1075,469314304,17.06452,12.58031,46.7976
1076,469414216,19.07817,11.42479,42.95757
1077,469514277,16.27972,11.59762,44.00519
1078,469614201,17.54488,11.31052,46.60743
1079,469714282,18.38001,12.47653,38.2415
1080,469814226,17.49653,11.59522,50.56141
1081,469914210,19.46882,14.08832,45.66796
1082,470014313,16.84255,15.38838,49.78441
1083,470114291,17.26208,14.10565,39.4743
1084,470214296,18.14649,12.24446,41.92417
1085,470314221,18.36572,13.66862,45.20911
1086,470414248,18.41663,12.22416,48.03801
1087,470514280,16.97647,14.01761,45.33533
1088,470614219,15.69261,12.75621,54.22391
1089,470714201,19.59761,12.24969,38.324
1090,470814266,19.50269,12.74586,37.6006
1091,470914282,18.40589,11.93364,33.24124
1092,471014230,19.8269,12.90462,32.02413
1093,471114249,20.79206,11.86499,33.9056
1094,471214149,20.31928,11.89851,37.84148
1095,471314269,20.02362,11.64946,36.81523
1096,471414224,17.87562,11.86944,38.20139
1097,471514214,17.15694,12.90654,42.18185
1098,471614221,21.26177,12.48398,40.90409
1099,471714190,21.28288,11.28799,38.96623
1100,471814228,17.71825,13.04933,42.26218
1101,471914226,16.28225,12.0513,47.37339
1102,472014257,16.6812,10.87438,56.26955
1103,472114263,16.73523,12.65638,45.07066
1104,472214252,16.89895,13.10353,50.71301
1105,472314250,17.27148,13.62354,47.47489
1106,472414204,16.76767,14.84428,41.96133
1107,472514333,16.83752,14.14514,39.50655
1108,472614238,16.74147,13.38278,39.47617
1109,472714221,17.44385,12.10711,38.97933
1110,472814249,19.775,11.40151,36.25882
1111,472914303,18.17913,13.23111,45.21634
1112,473014202,16.26267,12.62461,47.23347
1113,473114272,18.16342,13.54687,47.50346
1114,473214236,16.47025,14.05009,44.19073
1115,473314224,15.93191,14.13088,44.42347
1116,473414214,17.28094,12.23183,38.59165
1117,473514287,16.80713,11.71239,41.5429
1118,473614252,16.91961,12.39957,46.1311
1119,473714236,18.84212,10.77212,44.10793
1120,473814323,17.6973,12.78586,53.7398
1121,473914220,16.48,14.00407,52.86913
1122,474014233,16.72787,12.75462,42.8882
1123,474114259,19.59971,12.94144,35.84591
1124,474214244,18.22002,14.1576,42.17479
1125,474314266,20.68053,14.12673,35.86374
1126,474414226,19.20695,13.97661,45.40411
1127,474514255,20.48115,14.39523,38.72695
1128,474614288,17.23645,13.79366,41.24106
1129,474714307,17.88803,12.60346,45.78613
1130,474814195,16.73637,11.75204,46.41293
1131,474914216,19.01186,11.14967,42.64861
1132,475014215,18.53392,12.99498,47.58187
1133,475114214,18.61092,12.84584,48.36882
1134,475214315,21.03689,14.26523,45.19706
1135,475314293,19.28782,13.82017,46.20073
1136,475414306,17.55314,14.73382,45.92596
1137,475514235,16.76016,13.72179,46.6707
1138,475614221,15.9537,14.34278,51.34517
1139,475714237,17.3257,13.90991,42.47675
1140,475814210,16.36994,13.6477,46.61853
1141,475914206,18.75022,13.18881,46.52022
1142,476014270,18.54579,13.06968,46.95342
1143,476114280,17.52202,15.46863,48.12
1144,476214247,16.16106,14.99144,49.34141
1145,476314305,17.12379,15.00723,52.27331
1146,476414202,15.95511,13.85078,49.98398
1147,476514324,18.58309,13.15262,51.46446
1148,476614247,17.5619,14.81336,50.59368
1149,476714236,17.93168,14.91945,46.56273
1150,476814206,16.40557,15.10039,46.13118
1151,476914226,17.11981,14.73176,40.68993
1152,477014202,18.48074,14.6188,33.69556
1153,477114288,18.72615,12.81986,35.95004
1154,477214238,18.48633,13.48317,37.21456
1155,477314235,21.70991,13.40601,31.19744
1156,477414259,22.78105,14.27141,33.9519
1157,477514255,25.12253,13.56137,29.28357
1158,477614218,23.30745,13.30196,25.88366
1159,477714270,22.27925,14.64439,29.78387
1160,477814243,20.99236,13.41906,31.96674
1161,477914263,22.11323,11.76707,28.60455
1162,478014195,25.81351,12.06849,27.17752
1163,478114317,22.04955,13.66292,25.65075
1164,478214208,29.15627,11.98071,25.97323
1165,478314189,24.60688,10.09001,29.07813
1166,478414285,25.54616,11.75988,29.21393
1167,478514246,19.90361,13.83804,26.89595
1168,478614219,21.12911,11.5493,37.35982
1169,478714287,24.82288,11.5868,36.41878
1170,478814256,20.31824,13.93676,35.61145
1171,478914226,18.69941,13.36787,38.58013
1172,479014249,15.31219,13.32911,37.17512
1173,479114237,19.47584,13.29966,40.26406
1174,479214278,17.83076,12.51903,33.34478
1175,479314232,16.76245,14.2873,36.15096
1176,479414204,21.27341,11.58662,38.36053
1177,479514264,18.90699,13.14194,31.28686
1178,479614225,16.7993,15.7724,28.86467
1179,479714301,17.95778,15.59688,29.96418
1180,479814220,17.61424,12.24256,30.06613
1181,479914289,16.5876,14.10847,28.64624
1182,480014197,22.21465,10.97255,30.93035
1183,480114310,23.66277,11.84989,26.37267
1184,480214205,20.46882,11.82399,28.48517
1185,480314216,22.45276,10.48517,30.96919
1186,480414199,18.57213,12.53239,22.35099
1187,480514243,26.17227,10.92068,24.29219
1188,480614205,25.80843,10.66666,26.17874
1189,480714244,23.05606,10.40756,27.11687
1190,480814223,18.39425,12.4022,33.54743
1191,480914328,16.9649,12.25903,32.73154
1192,481014237,16.71213,12.45854,34.24625
1193,481114207,16.66205,13.2099,32.40177
1194,481214222,16.72518,12.94855,35.15399
1195,481314269,15.51598,10.91274,32.46322
1196,481414260,14.47131,11.0378,29.91477
1197,481514253,13.96181,12.42694,29.27043
1198,481614208,17.02784,11.18432,26.48392
1199,481714252,17.76727,10.32501,29.8514
1200,481814215,16.50667,10.29323,28.66887
1201,481914302,16.95605,11.42231,27.66711
1202,482014219,21.01725,11.749,26.84819
1203,482114213,23.01499,10.76229,27.7106
1204,482214219,17.67318,9.771324,26.01087
1205,482314218,23.11374,10.99656,31.03663
1206,482414242,25.9358,11.44353,23.31555
1207,482514218,21.25855,10.65322,20.45363
1208,482614236,19.26874,11.26629,28.98099
1209,482714297,16.31343,14.19644,25.16936
1210,482814241,23.6756,11.31057,22.75665
1211,482914217,23.50143,11.0974,24.11068
1212,483014315,24.66212,9.677126,27.28625
1213,483114274,21.09004,12.59804,22.77495
1214,483214199,24.23686,11.17538,25.97377
1215,483314305,22.6454,10.50002,28.25346
1216,483414170,19.84807,11.4636,31.3377
1217,483514229,15.15892,12.0148,25.64136
1218,483614239,17.12749,14.27248,27.01599
1219,483714297,20.47734,12.2366,32.23721
1220,483814280,18.18867,9.914894,28.29802
1221,483914304,18.48548,10.4361,26.12827
1222,484014240,22.69477,9.616343,30.3782
1223,484114218,21.66358,9.122498,35.35273
1224,484214201,22.89167,10.12238,30.81714
1225,484314250,20.48404,10.48138,26.6706
1226,484414231,19.25889,9.908658,26.52452
1227,484514254,17.26895,11.54426,26.47141
1228,484614252,17.11058,12.38478,25.78555
1229,484714240,17.086,10.19039,23.85094
1230,484814256,21.23258,9.064359,25.75427
1231,484914225,20.90507,9.064011,26.29228
1232,485014213,18.78916,10.31947,23.04193
1233,485114319,21.40712,10.06689,26.46059
1234,485214207,21.33108,10.09331,23.28091
1235,485314240,22.71898,9.144834,22.89141
1236,485414213,20.06641,11.15207,24.08577
1237,485514306,19.6502,11.67177,26.29597
1238,485614136,20.05918,10.2411,25.63624
1239,485714245,20.42803,11.08899,24.29197
1240,485814217,23.19472,9.56382,26.2701
1241,485914254,19.84119,9.999161,29.18748
1242,486014292,20.15233,11.37416,22.85139
1243,486114273,18.05266,11.84488,21.61503
1244,486214246,17.02015,9.45087,28.00153
1245,486314217,16.00143,9.046569,23.8859
1246,486414272,15.3935,9.35961,31.01332
1247,486514294,15.03122,9.750731,28.93536
1248,486614246,16.83156,8.968161,22.62112
1249,486714217,17.17074,9.330964,22.28514
1250,486814281,15.54386,9.792405,35.06095
1251,486914190,15.64456,10.4694,34.94911
1252,487014218,15.16916,10.36728,34.39117
1253,487114312,14.54026,9.991838,27.00698
1254,487214263,14.79121,9.55532,23.321
1255,487314291,15.88048,11.74068,29.64948
1256,487414337,14.31953,11.51463,34.63162
1257,487514260,17.38437,11.82772,30.45317
1258,487614283,15.89778,12.07764,33.64167
1259,487714221,19.50493,11.58047,29.63145
1260,487814227,15.36636,11.51278,28.71789
1261,487914175,17.8245,11.39909,24.18126
1262,488014207,20.2588,12.53916,21.72767
1263,488114229,20.17249,12.75635,21.76357
1264,488214241,21.87877,10.73388,21.9525
1265,488314299,23.98101,8.597847,20.71646
1266,488414226,23.2207,8.542148,22.48306
1267,488514217,16.00874,9.451171,25.28725
1268,488614299,22.53582,10.129,25.34779
1269,488714223,23.38524,10.43722,18.21117
1270,488814220,19.77024,9.102158,24.9258
1271,488914220,15.99574,13.02726,26.79264
1272,489014223,22.31037,9.176823,25.85833
1273,489114304,21.73446,9.119782,28.16352
1274,489214197,18.02039,8.901184,28.23619
1275,489314341,21.80851,9.530203,24.21931
1276,489414274,21.97689,9.360991,24.15077
1277,489514194,18.97583,10.25603,29.94456
1278,489614275,17.88893,11.93483,25.21656
1279,489714327,17.86201,11.48501,21.54558
1280,489814213,18.86628,11.01477,21.63423
1281,489914222,17.13222,10.53802,26.76885
1282,490014243,17.02289,11.23494,22.68779
1283,490114209,16.15627,10.93672,25.2473
1284,490214190,16.35989,9.978315,22.72973
1285,490314280,15.27331,9.415366,20.58244
1286,490414198,15.68774,9.302115,22.64353
1287,490514241,17.61026,8.791883,21.98553
1288,490614301,17.58287,9.684646,25.05987
1289,490714228,17.62451,9.559505,19.63838
1290,490814275,17.56435,9.443947,21.14947
1291,490914273,15.67136,10.01577,20.17106
1292,491014196,15.36142,9.348094,27.7008
1293,491114221,17.62195,9.528074,26.60651
1294,491214200,18.20669,10.02139,23.06887
1295,491314218,17.31049,11.95153,23.16643
1296,491414285,22.86815,8.316201,19.6627
1297,491514222,22.28998,8.714115,20.01291
1298,491614323,25.3512,7.462319,16.85235
1299,491714274,18.64004,11.08029,27.40993
1300,491814230,17.69864,11.80794,21.89733
1301,491914223,23.21316,9.482297,15.85984
1302,492014217,24.24937,8.246342,14.5953
1303,492114241,21.10775,10.53472,16.926
1304,492214152,23.04419,8.094461,18.84303
1305,492314319,20.10442,7.672747,23.17532
1306,492414221,15.03652,10.85998,25.66362
1307,492514296,14.94897,9.138273,25.21137
1308,492614323,21.39648,7.392242,18.17551
1309,492714305,17.23838,9.554117,30.29338
1310,492814198,21.70519,7.254337,28.3801
1311,492914199,17.6498,8.22723,27.60187
1312,493014192,18.75527,9.811113,18.75599
1313,493114216,19.49892,9.660703,23.55554
1314,493214242,18.01472,11.2008,21.47246
1315,493314202,16.77335,10.63818,22.34733
1316,493414219,18.72646,9.407419,19.27556
1317,493514264,20.54902,9.898371,18.3024
1318,493614322,20.36401,9.516635,19.62278
1319,493714273,18.61638,10.47711,22.26752
1320,493814230,18.88535,9.169328,20.16544
1321,493914221,18.48245,9.678198,21.45669
1322,494014246,19.93282,9.057208,17.55435
1323,494114263,18.44217,10.0716,18.93688
1324,494214220,21.64062,8.625283,22.45506
1325,494314270,20.50111,8.45873,23.98315
1326,494414253,17.33425,10.06948,19.431
1327,494514306,19.09296,9.294551,19.88784
1328,494614291,23.13792,7.751825,18.4962
1329,494714292,23.61497,7.01618,22.06209
1330,494814222,21.7843,6.952556,21.38448
1331,494914202,18.55583,8.223855,30.35021
1332,495014229,24.70671,7.803243,20.61019
1333,495114243,20.6568,11.24302,18.21235
1334,495214308,20.09985,11.52811,24.11169
1335,495314222,22.69983,9.205596,21.48215
1336,495414247,20.04524,9.005794,16.24558
1337,495514292,23.66233,7.53364,13.36909
1338,495614287,23.55319,8.676451,12.75539
1339,495714303,21.63023,8.235659,13.99251
1340,495814245,24.24759,7.000741,18.04235
1341,495914219,18.32616,6.196455,18.85468
1342,496014229,15.73268,8.405406,15.43721
1343,496114309,13.11156,11.13367,26.84765
1344,496214274,20.23911,8.307669,24.61915
1345,496314221,21.44595,7.89387,19.22015
1346,496414258,19.29256,8.069708,14.26929
1347,496514226,15.08763,9.56284,14.01872
1348,496614288,15.63313,10.09087,12.70771
1349,496714286,14.74355,10.27875,19.43767
1350,496814216,20.26388,8.460169,20.31866
1351,496914211,17.90659,9.160046,19.97506
1352,497014276,18.02473,8.796532,25.1181
1353,497114233,16.43833,10.16714,26.65596
1354,497214218,15.2432,9.672856,20.9143
1355,497314243,18.48166,8.583361,22.01121
1356,497414236,17.63968,8.638422,22.56169
1357,497514253,16.01811,8.873462,30.45188
1358,497614287,15.83173,10.96327,24.32973
1359,497714289,15.98109,9.633272,22.11601
1360,497814256,15.7975,9.023301,29.32735
1361,497914229,16.00445,9.191986,22.84529
1362,498014211,17.12617,10.43745,20.61332
1363,498114250,16.64805,8.831719,21.93767
1364,498214212,15.40233,7.566058,27.95662
1365,498314209,15.40987,8.603609,31.36108
1366,498414272,15.23536,8.675108,23.20016
1367,498514275,15.00637,8.061243,24.99276
1368,498614325,14.03568,8.655111,32.99783
1369,498714228,17.06735,8.489638,27.35669
1370,498814273,18.30671,8.345465,26.14385
1371,498914217,14.81409,9.691556,28.26967
1372,499014282,15.65375,10.72807,25.89796
1373,499114226,19.13161,9.643652,27.73819
1374,499214208,19.01509,9.193205,30.73713
1375,499314258,19.09068,7.790865,37.08263
1376,499414196,18.94813,9.785059,37.46651
1377,499514301,17.79295,9.746385,34.2542
1378,499614249,20.66214,8.651323,28.88594
1379,499714288,23.64276,7.147654,25.66337
1380,499814288,18.65412,9.420862,39.18674
1381,499914327,22.71626,8.123134,31.7406
1382,500014206,23.01361,6.725387,29.77035
1383,500114293,20.62518,7.872606,23.61118
1384,500214198,18.13791,7.997812,31.38027
1385,500314279,16.09466,9.129494,26.85983
1386,500414192,22.96893,9.783283,26.28
1387,500514211,22.14345,8.436271,32.40289
1388,500614366,20.34946,6.598479,23.40358
1389,500714276,23.43751,6.0696,21.37375
1390,500814270,23.05999,8.653744,20.79095
1391,500914212,26.38597,8.79361,23.53615
1392,501014330,23.07802,10.3934,20.26711
1393,501114202,20.93485,8.833848,29.98171
1394,501214216,19.38122,9.935232,29.14078
1395,501314271,23.36548,8.303535,22.67327
1396,501414213,22.05995,9.193156,28.75945
1397,501514328,21.49868,11.33633,23.83556
1398,501614356,15.47004,10.37164,31.01186
1399,501714311,22.77033,10.13522,26.7359
1400,501814240,21.95266,8.803466,30.56887
1401,501914272,21.00444,9.867271,37.91747
1402,502014194,18.85833,10.09437,37.55564
1403,502114211,20.6402,8.426644,28.71467
1404,502214199,23.21582,9.202231,28.17167
1405,502314170,24.42168,9.72097,28.27764
1406,502414207,24.31538,9.88489,29.01737
1407,502514221,22.98438,10.28498,29.17757
1408,502614359,22.99721,11.29622,26.04088
1409,502714241,25.26118,10.71936,26.88027
1410,502814241,22.88316,12.53059,20.74475
1411,502914207,24.54844,9.021703,19.47412
1412,503014306,25.40241,6.665753,18.53531
1413,503114243,20.96598,8.758818,26.98409
1414,503214198,19.18293,11.27176,23.63882
1415,503314327,21.63442,7.904139,29.44826
1416,503414218,17.60214,10.08002,28.72585
1417,503514293,19.15685,12.73229,26.1069
1418,503614352,25.46674,10.00768,21.05591
1419,503714195,24.27659,9.35726,28.43243
1420,503814196,21.72238,7.991158,34.62762
1421,503914232,26.5476,10.87688,31.67583
